{"type":"Topology","arcs":[],"objects":{"indigenous_ranger_program_-882340586112941559":{"type":"GeometryCollection","geometries":[{"type":"Point","coordinates":[152.389132677331,-24.7651435570295],"properties":{"OBJECTID":35,"NAME":"Gidarjil Land and Sea Rangers (2 groups)","ADMIN_ORG":"Gidarjil Development Corporation","REGION":"Qld - Mainland southern region","STATE":"QLD","COMMENTS":"Note: Two groups","NO_MAP":"2","LABELS":"2 Gidarjil Land and Sea Rangers (2 groups)","URL":"https://www.niaa.gov.au/indigenous-affairs/environment/indigenous-rangers-working-country/gidarjil-bundaberg-land-and-sea-rangers","LATITUDE":-24.76514356,"LONGITUDE":152.38913268},"id":1},{"type":"Point","coordinates":[149.576730000389,-28.1419709996619],"properties":{"OBJECTID":36,"NAME":"Queensland Murray Darling Rangers","ADMIN_ORG":"Queensland Murray Darling Catchments Limited","REGION":"Qld - Mainland southern region","STATE":"QLD","COMMENTS":" ","NO_MAP":"3","LABELS":"3 Queensland Murray Darling Rangers","URL":"https://www.niaa.gov.au/indigenous-affairs/environment/queensland-murray-darling-rangers","LATITUDE":-28.141971,"LONGITUDE":149.57673},"id":2},{"type":"Point","coordinates":[128.124280000422,-15.4868999997352],"properties":{"OBJECTID":37,"NAME":"Balanggarra Rangers","ADMIN_ORG":"Kimberley Land Council","REGION":"WA - Kimberley region","STATE":"WA","COMMENTS":" ","NO_MAP":"2","LABELS":"2 Balanggarra Rangers","URL":"https://www.niaa.gov.au/indigenous-affairs/environment/balanggarra-ipa-and-rangers","LATITUDE":-15.4869,"LONGITUDE":128.12428},"id":3},{"type":"Point","coordinates":[123.06019999973,-16.4483200001678],"properties":{"OBJECTID":38,"NAME":"Bardi Jawi Rangers","ADMIN_ORG":"Kimberley Land Council","REGION":"WA - Kimberley region","STATE":"WA","COMMENTS":" ","NO_MAP":"3","LABELS":"3 Bardi Jawi Rangers","URL":"https://www.niaa.gov.au/indigenous-affairs/environment/bardi-jawi-ipa-and-rangers","LATITUDE":-16.44832,"LONGITUDE":123.0602},"id":4},{"type":"Point","coordinates":[125.59140000001,-18.1780600003687],"properties":{"OBJECTID":39,"NAME":"Gooniyandi Rangers","ADMIN_ORG":"Kimberley Land Council","REGION":"WA - Kimberley region","STATE":"WA","COMMENTS":" ","NO_MAP":"4","LABELS":"4 Gooniyandi Rangers","URL":"https://www.niaa.gov.au/gooniyandi-rangers","LATITUDE":-18.17806,"LONGITUDE":125.5914},"id":5},{"type":"Point","coordinates":[121.78079999992,-18.6850000001498],"properties":{"OBJECTID":40,"NAME":"Karajarri Rangers","ADMIN_ORG":"Karajarri Traditional Lands Association","REGION":"WA - Kimberley region","STATE":"WA","COMMENTS":" ","NO_MAP":"5","LABELS":"5 Karajarri Rangers","URL":"https://www.niaa.gov.au/indigenous-affairs/environment/karajarri-ipa-and-rangers","LATITUDE":-18.685,"LONGITUDE":121.7808},"id":6},{"type":"Point","coordinates":[125.51020000023,-18.9860900003532],"properties":{"OBJECTID":41,"NAME":"Yanunijarra Ngurrara Rangers","ADMIN_ORG":"Yanunijarra Aboriginal Corporation RNTBC","REGION":"WA - Kimberley region","STATE":"WA","COMMENTS":" ","NO_MAP":"6","LABELS":"6 Yanunijarra Ngurrara Rangers","URL":"https://www.niaa.gov.au/indigenous-affairs/environment/warlu-jilajaa-jumu-ipa-and-yanunijarra-ngurrara-rangers","LATITUDE":-18.98609,"LONGITUDE":125.5102},"id":7},{"type":"Point","coordinates":[131.907073599567,-23.2024637101321],"properties":{"OBJECTID":42,"NAME":"Anangu Luritjiku Rangers","ADMIN_ORG":"Central Land Council","REGION":"NT - Central Australian region","STATE":"NT","COMMENTS":" ","NO_MAP":"1","LABELS":"1 Anangu Luritjiku Rangers","URL":"https://www.niaa.gov.au/indigenous-affairs/environment/anangu-luritjiku-rangers","LATITUDE":-23.20246371,"LONGITUDE":131.9070736},"id":8},{"type":"Point","coordinates":[132.713772000378,-27.0129079998043],"properties":{"OBJECTID":43,"NAME":"APY Land Management Rangers","ADMIN_ORG":"Anangu Pitjantjatjara Yankunytjatjara (APY) Land Management","REGION":"SA","STATE":"SA","COMMENTS":"Previously Anangu Land Management Rangers (and prior  to that APY Sandy Bore)","NO_MAP":"1","LABELS":"1 APY Land Management Rangers","URL":"https://www.niaa.gov.au/indigenous-affairs/environment/warru-kaninytjaku-apy-rangers","LATITUDE":-27.012908,"LONGITUDE":132.713772},"id":9},{"type":"Point","coordinates":[138.924030999731,-16.9216129996402],"properties":{"OBJECTID":44,"NAME":"Gangalidda Garawa (Burketown) Rangers","ADMIN_ORG":"Carpentaria Land Council Aboriginal Corporation","REGION":"Qld - Mainland northern region","STATE":"QLD","COMMENTS":"Previously Gangalidda Garawa Rangers","NO_MAP":"4","LABELS":"4 Gangalidda Garawa (Burketown) Rangers","URL":"https://www.niaa.gov.au/indigenous-affairs/environment/nijinda-durlga-ipa-and-gangalidda-garawa-rangers","LATITUDE":-16.921613,"LONGITUDE":138.924031},"id":10},{"type":"Point","coordinates":[124.01099999965,-18.0130399995962],"properties":{"OBJECTID":45,"NAME":"Nyikina Mangala Rangers","ADMIN_ORG":"Walalakoo Aboriginal Corporation RNTBC","REGION":"WA - Kimberley region","STATE":"WA","COMMENTS":" ","NO_MAP":"7","LABELS":"7 Nyikina Mangala Rangers","URL":"https://www.niaa.gov.au/indigenous-affairs/environment/indigenous-rangers-working-country/nyikina-mangala-rangers","LATITUDE":-18.01304,"LONGITUDE":124.011},"id":11},{"type":"Point","coordinates":[122.66579999977,-16.9794399998561],"properties":{"OBJECTID":46,"NAME":"Nyul Nyul Rangers","ADMIN_ORG":"Kimberley Land Council","REGION":"WA - Kimberley region","STATE":"WA","COMMENTS":" ","NO_MAP":"8","LABELS":"8 Nyul Nyul Rangers","URL":"https://www.niaa.gov.au/indigenous-affairs/environment/nyul-nyul-rangers","LATITUDE":-16.97944,"LONGITUDE":122.6658},"id":12},{"type":"Point","coordinates":[127.59520000038,-20.101359999964],"properties":{"OBJECTID":47,"NAME":"Paruku Rangers","ADMIN_ORG":"Kimberley Land Council","REGION":"WA - Kimberley region","STATE":"WA","COMMENTS":" ","NO_MAP":"9","LABELS":"9 Paruku Rangers","URL":"https://www.niaa.gov.au/indigenous-affairs/environment/paruku-ipa-and-rangers","LATITUDE":-20.10136,"LONGITUDE":127.5952},"id":13},{"type":"Point","coordinates":[126.642099999615,-14.2946899998436],"properties":{"OBJECTID":48,"NAME":"Uunguu Rangers","ADMIN_ORG":"Wunambal Gaambera Aboriginal Corporation","REGION":"WA - Kimberley region","STATE":"WA","COMMENTS":" ","NO_MAP":"10","LABELS":"10 Uunguu Rangers","URL":"https://www.niaa.gov.au/indigenous-affairs/environment/uunguu-ipa-and-rangers","LATITUDE":-14.29469,"LONGITUDE":126.6421},"id":14},{"type":"Point","coordinates":[126.31499999965,-16.4560200000229],"properties":{"OBJECTID":15,"NAME":"Wunggurr Rangers","ADMIN_ORG":"Wilinggin Aboriginal Corporation","REGION":"WA - Kimberley region","STATE":"WA","COMMENTS":"Changed lat/long 2016","NO_MAP":"11","LABELS":"11 Wunggurr Rangers","URL":"https://www.niaa.gov.au/indigenous-affairs/environment/wilinggin-ipa-and-wunggurr-rangers","LATITUDE":-16.45602,"LONGITUDE":126.315},"id":15},{"type":"Point","coordinates":[146.7000000001,-42.2000000000999],"properties":{"OBJECTID":16,"NAME":"Tasmania PWS Trainees","ADMIN_ORG":"Department of Primary Industries, Parks, Water and the Environment","REGION":"TAS","STATE":"TAS","COMMENTS":" ","NO_MAP":"2","LABELS":"2 Tasmania PWS Trainees","URL":"https://www.niaa.gov.au/tasmanian-aboriginal-trainee-rangers","LATITUDE":-42.2,"LONGITUDE":146.7},"id":16},{"type":"Point","coordinates":[141.06700000035,-17.6667000000049],"properties":{"OBJECTID":113,"NAME":"Kurtijar, Gkuthaarn, and Kukatj (Normanton) Rangers","ADMIN_ORG":"Carpentaria Land Council Aboriginal Corporation","REGION":"Qld - Mainland northern region","STATE":"QLD","COMMENTS":"Added 2016","NO_MAP":"5","LABELS":"5 Kurtijar, Gkuthaarn, and Kukatj (Normanton) Rangers","URL":"https://www.niaa.gov.au/indigenous-affairs/environment/normanton-rangers","LATITUDE":-17.6667,"LONGITUDE":141.067},"id":17},{"type":"Point","coordinates":[133.26340000011,-22.1263000003447],"properties":{"OBJECTID":17,"NAME":"Anmatyerr Rangers","ADMIN_ORG":"Central Land Council","REGION":"NT - Central Australian region","STATE":"NT","COMMENTS":" ","NO_MAP":"2","LABELS":"2 Anmatyerr Rangers","URL":"https://www.niaa.gov.au/indigenous-affairs/environment/anmatyerr-rangers","LATITUDE":-22.1263,"LONGITUDE":133.2634},"id":18},{"type":"Point","coordinates":[132.778699999805,-23.9427000003047],"properties":{"OBJECTID":18,"NAME":"Tjuwanpa Rangers","ADMIN_ORG":"Central Land Council","REGION":"NT - Central Australian region","STATE":"NT","COMMENTS":" ","NO_MAP":"4","LABELS":"4 Tjuwanpa Rangers","URL":"https://www.niaa.gov.au/indigenous-affairs/environment/tjuwanpa-rangers","LATITUDE":-23.9427,"LONGITUDE":132.7787},"id":19},{"type":"Point","coordinates":[143.198609999652,-13.9434799996022],"properties":{"OBJECTID":19,"NAME":"Kalan Rangers","ADMIN_ORG":"Kalan Enterprises Aboriginal Corporation","REGION":"Qld - Mainland northern region","STATE":"QLD","COMMENTS":"Previously Normanton Rangers","NO_MAP":"6","LABELS":"6 Kalan Rangers","URL":"https://www.niaa.gov.au/indigenous-affairs/environment/kalan-rangers","LATITUDE":-13.94348,"LONGITUDE":143.19861},"id":20},{"type":"Point","coordinates":[141.741979999877,-15.4796000003397],"properties":{"OBJECTID":20,"NAME":"Kowanyama Indigenous Rangers","ADMIN_ORG":"Kowanyama Aboriginal Shire Council","REGION":"Qld - Mainland northern region","STATE":"QLD","COMMENTS":" ","NO_MAP":"7","LABELS":"7 Kowanyama Indigenous Rangers","URL":"https://www.niaa.gov.au/indigenous-affairs/environment/kowanyama-rangers","LATITUDE":-15.4796,"LONGITUDE":141.74198},"id":21},{"type":"Point","coordinates":[143.686109999577,-14.0668099996817],"properties":{"OBJECTID":21,"NAME":"Lama Lama Rangers","ADMIN_ORG":"Yintjingga Aboriginal Corporation","REGION":"Qld - Mainland northern region","STATE":"QLD","COMMENTS":" ","NO_MAP":"8","LABELS":"8 Lama Lama Rangers","URL":"https://www.niaa.gov.au/indigenous-affairs/environment/indigenous-rangers-working-country/lama-lama-rangers","LATITUDE":-14.06681,"LONGITUDE":143.68611},"id":22},{"type":"Point","coordinates":[141.902499999975,-12.0190500000574],"properties":{"OBJECTID":22,"NAME":"Mapoon Land and Sea Rangers","ADMIN_ORG":"Mapoon Aboriginal Shire Council","REGION":"Qld - Mainland northern region","STATE":"QLD","COMMENTS":" ","NO_MAP":"9","LABELS":"9 Mapoon Land and Sea Rangers","URL":"https://www.niaa.gov.au/indigenous-affairs/environment/mapoon-land-and-sea-rangers","LATITUDE":-12.01905,"LONGITUDE":141.9025},"id":23},{"type":"Point","coordinates":[132.778699999805,-23.9427000003047],"properties":{"OBJECTID":23,"NAME":"Tjuwanpa Women Rangers","ADMIN_ORG":"Tjuwanpa Outstations Resource Centre Aboriginal Corporation","REGION":"NT - Central Australian region","STATE":"NT","COMMENTS":" ","NO_MAP":"5","LABELS":"5 Tjuwanpa Women Rangers","URL":"https://www.niaa.gov.au/indigenous-affairs/environment/tjuwanpa-women-rangers","LATITUDE":-23.9427,"LONGITUDE":132.7787},"id":24},{"type":"Point","coordinates":[129.079159999634,-24.8761099995768],"properties":{"OBJECTID":24,"NAME":"Kaltukatjara Rangers","ADMIN_ORG":"Central Land Council","REGION":"NT - Central Australian region","STATE":"NT","COMMENTS":" ","NO_MAP":"6","LABELS":"6 Kaltukatjara Rangers","URL":"https://www.niaa.gov.au/indigenous-affairs/environment/katiti-petermann-ipa-kaltukatjara-rangers-and-mutijulu-tjakura-rangers","LATITUDE":-24.87611,"LONGITUDE":129.07916},"id":25},{"type":"Point","coordinates":[152.45119999988,-31.9152000003797],"properties":{"OBJECTID":25,"NAME":"Mid North Coast Indigenous Rangers","ADMIN_ORG":"Taree Indigenous Development and Employment","REGION":"NSW","STATE":"NSW","COMMENTS":"Previously TIDE Rangers","NO_MAP":"5","LABELS":"5 Mid North Coast Indigenous Rangers","URL":"https://www.niaa.gov.au/indigenous-affairs/environment/mid-north-coast-aboriginal-rangers","LATITUDE":-31.9152,"LONGITUDE":152.4512},"id":26},{"type":"Point","coordinates":[131.795289999734,-22.2538899999235],"properties":{"OBJECTID":26,"NAME":"Warlpiri Rangers","ADMIN_ORG":"Central Land Council","REGION":"NT - Central Australian region","STATE":"NT","COMMENTS":" ","NO_MAP":"7","LABELS":"7 Warlpiri Rangers","URL":"https://www.niaa.gov.au/indigenous-affairs/environment/southern-tanami-ipa-and-warlpiri-rangers","LATITUDE":-22.25389,"LONGITUDE":131.79529},"id":27},{"type":"Point","coordinates":[130.120847199639,-13.0875138898541],"properties":{"OBJECTID":27,"NAME":"Bulgul Land and Sea Rangers","ADMIN_ORG":"Northern Land Council","REGION":"NT - Top End region","STATE":"NT","COMMENTS":" ","NO_MAP":"9","LABELS":"9 Bulgul Land and Sea Rangers","URL":"https://www.niaa.gov.au/indigenous-affairs/environment/indigenous-rangers-working-country/bulgul-land-and-sea-rangers","LATITUDE":-13.08751389,"LONGITUDE":130.1208472},"id":28},{"type":"Point","coordinates":[130.688930599867,-13.750541670062],"properties":{"OBJECTID":28,"NAME":"Malak Malak Land and Water Management Rangers","ADMIN_ORG":"Northern Land Council","REGION":"NT - Top End region","STATE":"NT","COMMENTS":" ","NO_MAP":"10","LABELS":"10 Malak Malak Land and Water Management Rangers","URL":"https://www.niaa.gov.au/indigenous-affairs/environment/malak-malak-land-management-rangers","LATITUDE":-13.75054167,"LONGITUDE":130.6889306},"id":29},{"type":"Point","coordinates":[120.842380999883,-23.2773469995643],"properties":{"OBJECTID":114,"NAME":"Jigalong Rangers","ADMIN_ORG":"Desert Support Services","REGION":"WA - Central and Southern region","STATE":"WA","COMMENTS":" ","NO_MAP":"12","LABELS":"12 Jigalong Rangers","URL":"https://www.niaa.gov.au/indigenous-affairs/environment/western-desert-martu-ranger-programme","LATITUDE":-23.277347,"LONGITUDE":120.842381},"id":30},{"type":"Point","coordinates":[123.148891999666,-22.0791190000418],"properties":{"OBJECTID":115,"NAME":"Punmu Rangers","ADMIN_ORG":"Desert Support Services","REGION":"WA - Central and Southern region","STATE":"WA","COMMENTS":" ","NO_MAP":"13","LABELS":"13 Punmu Rangers","URL":"https://www.niaa.gov.au/indigenous-affairs/environment/western-desert-martu-ranger-programme","LATITUDE":-22.079119,"LONGITUDE":123.148892},"id":31},{"type":"Point","coordinates":[122.599345000072,-22.8180000001998],"properties":{"OBJECTID":116,"NAME":"Parnngurr Rangers","ADMIN_ORG":"Desert Support Services","REGION":"WA - Central and Southern region","STATE":"WA","COMMENTS":"Changed lat/long 2016","NO_MAP":"14","LABELS":"14 Parnngurr Rangers","URL":"https://www.niaa.gov.au/indigenous-affairs/environment/western-desert-martu-ranger-programme","LATITUDE":-22.818,"LONGITUDE":122.599345},"id":32},{"type":"Point","coordinates":[129.520499999575,-14.24039999996],"properties":{"OBJECTID":29,"NAME":"Thamarrurr Rangers","ADMIN_ORG":"Thamarrurr Development Corporation","REGION":"NT - Top End region","STATE":"NT","COMMENTS":" ","NO_MAP":"12","LABELS":"12 Thamarrurr Rangers","URL":"https://www.niaa.gov.au/indigenous-affairs/environment/marri-jabin-ipa-and-thamarrurr-rangers","LATITUDE":-14.2404,"LONGITUDE":129.5205},"id":33},{"type":"Point","coordinates":[137.4999999996,-18.2500000002997],"properties":{"OBJECTID":49,"NAME":"Waanyi Garawa Rangers","ADMIN_ORG":"Northern Land Council","REGION":"NT - Arnhem Land region","STATE":"NT","COMMENTS":" ","NO_MAP":"13","LABELS":"13 Waanyi Garawa Rangers","URL":"https://www.niaa.gov.au/indigenous-affairs/environment/ganalanga-mindibirrina-ipa-and-waanyi-garawa-and-garawa-rangers","LATITUDE":-18.25,"LONGITUDE":137.5},"id":34},{"type":"Point","coordinates":[136.980569399558,-16.7597361096337],"properties":{"OBJECTID":124,"NAME":"Garawa Rangers","ADMIN_ORG":"Northern Land Council","REGION":"NT - Arnhem Land region","STATE":"NT","COMMENTS":" ","NO_MAP":"14","LABELS":"14 Garawa Rangers","URL":"https://www.niaa.gov.au/indigenous-affairs/environment/ganalanga-mindibirrina-ipa-and-waanyi-garawa-and-garawa-rangers","LATITUDE":-16.75973611,"LONGITUDE":136.9805694},"id":35},{"type":"Point","coordinates":[130.674179999707,-11.4216669996323],"properties":{"OBJECTID":50,"NAME":"Tiwi Rangers","ADMIN_ORG":"Tiwi Resources","REGION":"NT - Top End region","STATE":"NT","COMMENTS":" ","NO_MAP":"16","LABELS":"16 Tiwi Rangers","URL":"https://www.niaa.gov.au/indigenous-affairs/environment/tiwi-islands-land-and-marine-rangers","LATITUDE":-11.421667,"LONGITUDE":130.67418},"id":36},{"type":"Point","coordinates":[141.888890000074,-12.6823800001368],"properties":{"OBJECTID":51,"NAME":"Nanum Wungthim Rangers","ADMIN_ORG":"Napranum Aboriginal Shire Council","REGION":"Qld - Mainland northern region","STATE":"QLD","COMMENTS":"Previously Napranum","NO_MAP":"25","LABELS":"25 Nanum Wungthim Rangers","URL":"https://www.niaa.gov.au/indigenous-affairs/environment/nanum-wungthim-land-and-sea-rangers","LATITUDE":-12.68238,"LONGITUDE":141.88889},"id":37},{"type":"Point","coordinates":[150.928400900281,-31.0859684004213],"properties":{"OBJECTID":52,"NAME":"Walaaybaa Rangers","ADMIN_ORG":"Tamworth Local Aboriginal Land Council","REGION":"NSW","STATE":"NSW","COMMENTS":"Previously Wattleridge & Tarriwa Kurrukun Rangers. Previous location -30.2152,151.6679","NO_MAP":"4","LABELS":"4 Walaaybaa Rangers","URL":"https://www.niaa.gov.au/indigenous-affairs/environment/tarriwa-kurrukun-ipa-and-rangers","LATITUDE":-31.08596842,"LONGITUDE":150.92840093},"id":38},{"type":"Point","coordinates":[124.72564553961,-22.3288048447677],"properties":{"OBJECTID":125,"NAME":"Kunawarritji Rangers","ADMIN_ORG":"Desert Support Services","REGION":"WA - Central and Southern region","STATE":"WA","COMMENTS":"Changed lat/long 2022","NO_MAP":"15","LABELS":"15 Kunawarritji Rangers","URL":"https://www.niaa.gov.au/indigenous-affairs/environment/western-desert-martu-ranger-programme","LATITUDE":-22.32880484,"LONGITUDE":124.72564554},"id":39},{"type":"Point","coordinates":[128.285675000401,-25.9876059996171],"properties":{"OBJECTID":53,"NAME":"Blackstone Rangers","ADMIN_ORG":"Ngaanyajtarra Council Aboriginal Corporation","REGION":"WA - Central and Southern region","STATE":"WA","COMMENTS":" ","NO_MAP":"18","LABELS":"18 Blackstone Rangers","URL":"https://www.niaa.gov.au/indigenous-affairs/environment/ngaanyatjarra-ipa-and-rangers","LATITUDE":-25.987606,"LONGITUDE":128.285675},"id":40},{"type":"Point","coordinates":[128.299055999635,-24.9802250002835],"properties":{"OBJECTID":126,"NAME":"Warakurna Rangers","ADMIN_ORG":"Desert Support Services","REGION":"WA - Central and Southern region","STATE":"WA","COMMENTS":" ","NO_MAP":"19","LABELS":"19 Warakurna Rangers","URL":"https://www.niaa.gov.au/indigenous-affairs/environment/western-desert-martu-ranger-programme","LATITUDE":-24.980225,"LONGITUDE":128.299056},"id":41},{"type":"Point","coordinates":[145.37360000024,-16.4604100001214],"properties":{"OBJECTID":54,"NAME":"Eastern Kuku Yalanji Indigenous Rangers","ADMIN_ORG":"Jabalbina Yalanji Aboriginal Corporation RNTBC","REGION":"Qld - Mainland northern region","STATE":"QLD","COMMENTS":"Previously Nyungkal","NO_MAP":"27","LABELS":"27 Eastern Kuku Yalanji Indigenous Rangers","URL":"https://www.niaa.gov.au/indigenous-affairs/environment/eastern-kuku-yalanji-ipa-and-eastern-yalanji-rangers","LATITUDE":-16.46041,"LONGITUDE":145.3736},"id":42},{"type":"Point","coordinates":[145.333330000279,-15.6000000001998],"properties":{"OBJECTID":55,"NAME":"Yuku-Baja-Muliku Indigenous Rangers","ADMIN_ORG":"Yuku-Baja-Muliku Land Owner and Reserves Limited","REGION":"Qld - Mainland northern region","STATE":"QLD","COMMENTS":" ","NO_MAP":"28","LABELS":"28 Yuku-Baja-Muliku Indigenous Rangers","URL":"https://www.niaa.gov.au/indigenous-affairs/environment/yuku-baja-muliku-rangers","LATITUDE":-15.6,"LONGITUDE":145.33333},"id":43},{"type":"Point","coordinates":[146.017769999886,-18.2704000003597],"properties":{"OBJECTID":56,"NAME":"Girringun Rangers","ADMIN_ORG":"Girringun Aboriginal Corporation","REGION":"Qld - Mainland northern region","STATE":"QLD","COMMENTS":" ","NO_MAP":"30","LABELS":"30 Girringun Rangers","URL":"https://www.niaa.gov.au/indigenous-affairs/environment/girringun-ipa-and-girringun-land-and-sea-rangers","LATITUDE":-18.2704,"LONGITUDE":146.01777},"id":44},{"type":"Point","coordinates":[128.21699999995,-17.0332999996952],"properties":{"OBJECTID":57,"NAME":"Kija Rangers","ADMIN_ORG":"Kimberley Land Council","REGION":"WA - Kimberley region","STATE":"WA","COMMENTS":"Added 2016","NO_MAP":"20","LABELS":"20 Kija Rangers","URL":"https://www.niaa.gov.au/indigenous-affairs/environment/kija-rangers","LATITUDE":-17.0333,"LONGITUDE":128.217},"id":45},{"type":"Point","coordinates":[135.46192999987,-33.047219999903],"properties":{"OBJECTID":58,"NAME":"Gawler Ranges Rangers","ADMIN_ORG":"Gawler Ranges Aboriginal Corporation","REGION":"SA","STATE":"SA","COMMENTS":" ","NO_MAP":"2","LABELS":"2 Gawler Ranges Rangers","URL":"https://www.niaa.gov.au/indigenous-affairs/environment/gawler-ranges-rangers","LATITUDE":-33.04722,"LONGITUDE":135.46193},"id":46},{"type":"Point","coordinates":[138.979170000095,-30.5819399998311],"properties":{"OBJECTID":59,"NAME":"Nantawarrina Rangers","ADMIN_ORG":"Nipapanha Community Aboriginal Corporation","REGION":"SA","STATE":"SA","COMMENTS":" ","NO_MAP":"3","LABELS":"3 Nantawarrina Rangers","URL":"https://www.niaa.gov.au/indigenous-affairs/environment/nantawarrina-ipa-and-rangers","LATITUDE":-30.58194,"LONGITUDE":138.97917},"id":47},{"type":"Point","coordinates":[120.684066700418,-19.7679638904212],"properties":{"OBJECTID":60,"NAME":"Nyangumarta Rangers","ADMIN_ORG":"Yamatji Marlpa Aboriginal Corporation","REGION":"WA - Central and Southern region","STATE":"WA","COMMENTS":"Added January 2017","NO_MAP":"21","LABELS":"21 Nyangumarta Rangers","URL":"https://www.niaa.gov.au/indigenous-affairs/environment/nyangumarta-warrarn-ipa-and-rangers","LATITUDE":-19.76796389,"LONGITUDE":120.6840667},"id":48},{"type":"Point","coordinates":[134.732099999815,-14.7316999997552],"properties":{"OBJECTID":61,"NAME":"Yugul Mangi Land and Sea Management Rangers","ADMIN_ORG":"Northern Land Council","REGION":"NT - Arnhem Land region","STATE":"NT","COMMENTS":" ","NO_MAP":"27","LABELS":"27 Yugul Mangi Land and Sea Management Rangers","URL":"https://www.niaa.gov.au/indigenous-affairs/environment/yugul-mangi-rangers","LATITUDE":-14.7317,"LONGITUDE":134.7321},"id":49},{"type":"Point","coordinates":[127.095745000432,-29.3402430003142],"properties":{"OBJECTID":30,"NAME":"Spinifex Rangers","ADMIN_ORG":"Pila Nguru Aboriginal Corporation RNTBC","REGION":"WA - Central and Southern region","STATE":"WA","COMMENTS":"Added 2018","NO_MAP":"23","LABELS":"23 Spinifex Rangers","URL":"https://www.niaa.gov.au/indigenous-affairs/environment/anangu-tjutaku-ipa-and-spinifex-land-management-rangers","LATITUDE":-29.340243,"LONGITUDE":127.095745},"id":50},{"type":"Point","coordinates":[116.19899999965,-28.3440000001998],"properties":{"OBJECTID":62,"NAME":"Mid West Aboriginal Rangers (3 groups)","ADMIN_ORG":"Northern Agricultural Catchments Council","REGION":"WA - Central and Southern region","STATE":"WA","COMMENTS":"Added 2018","NO_MAP":"24","LABELS":"24 Mid West Aboriginal Rangers (3 groups)","URL":"https://www.niaa.gov.au/indigenous-affairs/environment/indigenous-rangers-working-country/midwest-aboriginal-rangers","LATITUDE":-28.344,"LONGITUDE":116.199},"id":51},{"type":"Point","coordinates":[145.61099999965,-16.7070619999113],"properties":{"OBJECTID":63,"NAME":"Yirrganydji Indigenous Land and Sea Rangers","ADMIN_ORG":"Dawul Wuru Aboriginal Corporation","REGION":"Qld - Mainland northern region","STATE":"QLD","COMMENTS":"Added 2016","NO_MAP":"31","LABELS":"31 Yirrganydji Indigenous Land and Sea Rangers","URL":"https://www.niaa.gov.au/indigenous-affairs/environment/yirrganydji-indigenous-land-and-sea-rangers","LATITUDE":-16.707062,"LONGITUDE":145.611},"id":52},{"type":"Point","coordinates":[139.267113000165,-35.7429239996428],"properties":{"OBJECTID":64,"NAME":"Ngarrindjeri Rangers","ADMIN_ORG":"Ngarrindjeri Regional Authority","REGION":"SA","STATE":"SA","COMMENTS":" ","NO_MAP":"4","LABELS":"4 Ngarrindjeri Rangers","URL":"https://www.niaa.gov.au/indigenous-affairs/environment/ngarrindjeri-rangers","LATITUDE":-35.742924,"LONGITUDE":139.267113},"id":53},{"type":"Point","coordinates":[139.104749999613,-35.5171900004182],"properties":{"OBJECTID":65,"NAME":"Raukkan Rangers","ADMIN_ORG":"Aboriginal Lands Trust of South Australia","REGION":"SA","STATE":"SA","COMMENTS":" ","NO_MAP":"5","LABELS":"5 Raukkan Rangers","URL":"https://www.niaa.gov.au/indigenous-affairs/environment/raukkan-rangers","LATITUDE":-35.51719,"LONGITUDE":139.10475},"id":54},{"type":"Point","coordinates":[143.153115999804,-33.728595000259],"properties":{"OBJECTID":66,"NAME":"Willandra Lakes Region Indigenous Rangers","ADMIN_ORG":"NSW National Parks and Wildlife Service","REGION":"NSW","STATE":"NSW","COMMENTS":" ","NO_MAP":"9","LABELS":"9 Willandra Lakes Region Indigenous Rangers","URL":"https://www.niaa.gov.au/indigenous-affairs/environment/indigenous-rangers-working-country/willandra-lakes-world-heritage-area-rangers","LATITUDE":-33.728595,"LONGITUDE":143.153116},"id":55},{"type":"Point","coordinates":[121.7780000003,-32.1960000001998],"properties":{"OBJECTID":67,"NAME":"Ngadju Rangers","ADMIN_ORG":"Ngadju Conservation Aboriginal Corporation","REGION":"WA - Central and Southern region","STATE":"WA","COMMENTS":"Added 2018","NO_MAP":"25","LABELS":"25 Ngadju Rangers","URL":"https://www.niaa.gov.au/indigenous-affairs/environment/ngadju-ipa-and-rangers","LATITUDE":-32.196,"LONGITUDE":121.778},"id":56},{"type":"Point","coordinates":[127.501134400133,-22.873347969733],"properties":{"OBJECTID":68,"NAME":"Kiwirrkurra Rangers","ADMIN_ORG":"Desert Support Services","REGION":"WA - Central and Southern region","STATE":"WA","COMMENTS":"Added 2018","NO_MAP":"26","LABELS":"26 Kiwirrkurra Rangers","URL":"https://www.niaa.gov.au/indigenous-affairs/environment/kiwirrkurra-ipa-and-rangers","LATITUDE":-22.87334797,"LONGITUDE":127.5011344},"id":57},{"type":"Point","coordinates":[133.422995706687,-15.165192682796],"properties":{"OBJECTID":69,"NAME":"Mangarrayi Rangers","ADMIN_ORG":"Jawoyn Association Aboriginal Corporation","REGION":"NT - Top End region","STATE":"NT","COMMENTS":" ","NO_MAP":"34","LABELS":"34 Mangarrayi Rangers","URL":"https://www.niaa.gov.au/indigenous-affairs/environment/indigenous-rangers-working-country/mangarrayi-rangers","LATITUDE":-15.16519268,"LONGITUDE":133.42299571},"id":58},{"type":"Point","coordinates":[131.067359599866,-25.3506952996483],"properties":{"OBJECTID":127,"NAME":"Tjakura Rangers","ADMIN_ORG":"Central Land Council","REGION":"NT - Central Australian region","STATE":"NT","COMMENTS":"Added 2018","NO_MAP":"35","LABELS":"35 Tjakura Rangers","URL":"https://www.niaa.gov.au/indigenous-affairs/environment/katiti-petermann-ipa-kaltukatjara-rangers-and-mutijulu-tjakura-rangers","LATITUDE":-25.3506953,"LONGITUDE":131.0673596},"id":59},{"type":"Point","coordinates":[140.705199765357,-34.0424363645465],"properties":{"OBJECTID":70,"NAME":"Australian Landscapes Trust Ranger Team","ADMIN_ORG":"Aboriginal Lands Trust of South Australia","REGION":"SA","STATE":"SA","COMMENTS":" ","NO_MAP":"6","LABELS":"6 Australian Landscapes Trust Ranger Team","URL":"https://www.niaa.gov.au/indigenous-affairs/environment/yappala-ipa","LATITUDE":-34.04243637,"LONGITUDE":140.70519976},"id":60},{"type":"Point","coordinates":[131.842149999623,-31.4721099997766],"properties":{"OBJECTID":71,"NAME":"Yalata Rangers","ADMIN_ORG":"Yalata Anangu Aboriginal Corporation","REGION":"SA","STATE":"SA","COMMENTS":" ","NO_MAP":"7","LABELS":"7 Yalata Rangers","URL":"https://www.niaa.gov.au/indigenous-affairs/environment/yalata-ipa-and-rangers","LATITUDE":-31.47211,"LONGITUDE":131.84215},"id":61},{"type":"Point","coordinates":[142.02910399995,-34.0291530002107],"properties":{"OBJECTID":72,"NAME":"Barkindji Maraura Elders Environment Rangers","ADMIN_ORG":"Barkindji Maraura Elders Environment Team Ltd","REGION":"NSW","STATE":"NSW","COMMENTS":" ","NO_MAP":"10","LABELS":"10 Barkindji Maraura Elders Environment Rangers","URL":"https://www.niaa.gov.au/indigenous-affairs/environment/barkindji-maraura-rangers","LATITUDE":-34.029153,"LONGITUDE":142.029104},"id":62},{"type":"Point","coordinates":[130.221388899778,-14.4105555999609],"properties":{"OBJECTID":73,"NAME":"Asyrikarrak Kirim Rangers","ADMIN_ORG":"Deewin Kirim Aboriginal Corporation","REGION":"NT - Top End region","STATE":"NT","COMMENTS":"Added 2018","NO_MAP":"36","LABELS":"36 Asyrikarrak Kirim Rangers","URL":"https://www.niaa.gov.au/indigenous-affairs/environment/indigenous-rangers-working-country/asyrikarrak-kirim-rangers","LATITUDE":-14.4105556,"LONGITUDE":130.2213889},"id":63},{"type":"Point","coordinates":[151.230349600154,-33.9821658002115],"properties":{"OBJECTID":74,"NAME":"Gamay Rangers","ADMIN_ORG":"La Perouse Local Aboriginal Land Council","REGION":"NSW","STATE":"NSW","COMMENTS":"Added 2018","NO_MAP":"7","LABELS":"7 Gamay Rangers","URL":"https://www.niaa.gov.au/indigenous-affairs/environment/indigenous-rangers-working-country/gamay-botany-bay-rangers","LATITUDE":-33.9821658,"LONGITUDE":151.2303496},"id":64},{"type":"Point","coordinates":[130.740221000099,-29.4007669998971],"properties":{"OBJECTID":75,"NAME":"Oak Valley Rangers","ADMIN_ORG":"Oak Valley (Maralinga) Aboriginal Corporation","REGION":"SA","STATE":"SA","COMMENTS":"Added 2018","NO_MAP":"8","LABELS":"8 Oak Valley Rangers","URL":"https://www.niaa.gov.au/indigenous-affairs/environment/indigenous-rangers-working-country/oak-valley-rangers","LATITUDE":-29.400767,"LONGITUDE":130.740221},"id":65},{"type":"Point","coordinates":[153.40279999982,-27.4988299998046],"properties":{"OBJECTID":76,"NAME":"Quandamooka Rangers","ADMIN_ORG":"Quandamooka Yoolooburrabee Aboriginal Corporation","REGION":"Qld - Mainland southern region","STATE":"QLD","COMMENTS":"Added August 2016","NO_MAP":"32","LABELS":"32 Quandamooka Rangers","URL":"https://www.niaa.gov.au/indigenous-affairs/environment/quandamooka-rangers","LATITUDE":-27.49883,"LONGITUDE":153.4028},"id":66},{"type":"Point","coordinates":[153.349594399762,-29.1850361004356],"properties":{"OBJECTID":77,"NAME":"Jahnala Yenbalehla Rangers","ADMIN_ORG":"Minyumai Land Holding Aboriginal Corporation","REGION":"NSW","STATE":"NSW","COMMENTS":"Added 2018","NO_MAP":"3","LABELS":"3 Jahnala Yenbalehla Rangers","URL":"https://www.niaa.gov.au/indigenous-affairs/environment/indigenous-protected-areas/minyumai-ipa-and-jahnala-yenbalehla-rangers","LATITUDE":-29.1850361,"LONGITUDE":153.3495944},"id":67},{"type":"Point","coordinates":[151.867250000187,-32.8066649997898],"properties":{"OBJECTID":78,"NAME":"Worimi Green Team Rangers","ADMIN_ORG":"Worimi Local Aboriginal Land Council","REGION":"NSW","STATE":"NSW","COMMENTS":"Added 2017. Run by the Worimi Local Aboriginal Land Council","NO_MAP":"6","LABELS":"6 Worimi Green Team Rangers","URL":"https://www.niaa.gov.au/indigenous-affairs/environment/indigenous-rangers-working-country/worimi-green-team","LATITUDE":-32.806665,"LONGITUDE":151.86725},"id":68},{"type":"Point","coordinates":[147.327684000316,-42.8104640003134],"properties":{"OBJECTID":128,"NAME":"milythina pakana Rangers (3 groups incl. 1a & 1b)","ADMIN_ORG":"Aboriginal Land Council of Tasmania","REGION":"TAS","STATE":"TAS","COMMENTS":"Note: Three groups, Previously Tasmanian Aboriginal Centre Rangers - milaythina pakana","NO_MAP":"1","LABELS":"1 milythina pakana Rangers (3 groups incl. 1a & 1b)","URL":"https://www.niaa.gov.au/tasmanian-aboriginal-trainee-rangers","LATITUDE":-42.810464,"LONGITUDE":147.327684},"id":69},{"type":"Point","coordinates":[128.73959999974,-15.7727300003892],"properties":{"OBJECTID":79,"NAME":"Yawoorroong Miriuwung Gajerrong Rangers","ADMIN_ORG":"Yawoorroong Miriuwang Gajerrong Yirrgeb Noong Dawang Aboriginal Corporation","REGION":"WA - Kimberley region","STATE":"WA","COMMENTS":" ","NO_MAP":"1","LABELS":"1 Yawoorroong Miriuwung Gajerrong Rangers","URL":"https://www.niaa.gov.au/indigenous-affairs/environment/miriuwung-gajerrong-rangers","LATITUDE":-15.77273,"LONGITUDE":128.7396},"id":70},{"type":"Point","coordinates":[153.01180000017,-28.625499999925],"properties":{"OBJECTID":80,"NAME":"Githabul Rangers","ADMIN_ORG":"Border Rangers Contractors Pty Ltd","REGION":"NSW","STATE":"NSW","COMMENTS":" ","NO_MAP":"1","LABELS":"1 Githabul Rangers","URL":"https://www.niaa.gov.au/indigenous-affairs/environment/indigenous-rangers-working-country/githabul-rangers","LATITUDE":-28.6255,"LONGITUDE":153.0118},"id":71},{"type":"Point","coordinates":[134.19020000033,-19.6478000003697],"properties":{"OBJECTID":81,"NAME":"Muru-warinyi Ankkul Rangers","ADMIN_ORG":"Central Land Council","REGION":"NT - Central Australian region","STATE":"NT","COMMENTS":"Previously Maru-Warinyi Ankkul Rangers","NO_MAP":"3","LABELS":"3 Muru-warinyi Ankkul Rangers","URL":"https://www.niaa.gov.au/indigenous-affairs/environment/muru-warinyi-ankkul-rangers","LATITUDE":-19.6478,"LONGITUDE":134.1902},"id":72},{"type":"Point","coordinates":[145.812230000214,-16.9033300000794],"properties":{"OBJECTID":82,"NAME":"Mandingalbay Yidinji Rangers","ADMIN_ORG":"Djunbunji Limited","REGION":"Qld - Mainland northern region","STATE":"QLD","COMMENTS":"Previously Djunbunji","NO_MAP":"10","LABELS":"10 Mandingalbay Yidinji Rangers","URL":"https://www.niaa.gov.au/indigenous-affairs/environment/mandingalbay-yidinji-ipa-and-rangers","LATITUDE":-16.90333,"LONGITUDE":145.81223},"id":73},{"type":"Point","coordinates":[130.638339999891,-18.3358400000159],"properties":{"OBJECTID":83,"NAME":"North Tanami Rangers","ADMIN_ORG":"Central Land Council","REGION":"NT - Central Australian region","STATE":"NT","COMMENTS":"Previously Wulaign","NO_MAP":"8","LABELS":"8 North Tanami Rangers","URL":"https://www.niaa.gov.au/indigenous-affairs/environment/northern-tanami-ipa-and-north-tanami-rangers","LATITUDE":-18.33584,"LONGITUDE":130.63834},"id":74},{"type":"Point","coordinates":[153.20120000018,-28.6151999997802],"properties":{"OBJECTID":84,"NAME":"Ngulingah Aboriginal Rangers","ADMIN_ORG":"Ngulingah Local Aboriginal Land Council","REGION":"NSW","STATE":"NSW","COMMENTS":"Previously Nimbin Rocks Rangers","NO_MAP":"2","LABELS":"2 Ngulingah Aboriginal Rangers","URL":"https://www.niaa.gov.au/ngulingah-nimbin-rock-rangers","LATITUDE":-28.6152,"LONGITUDE":153.2012},"id":75},{"type":"Point","coordinates":[136.30860000019,-16.0697000003547],"properties":{"OBJECTID":85,"NAME":"Li-Anthawirriyarra Sea Rangers","ADMIN_ORG":"Mabunji Aboriginal Resource Association","REGION":"NT - Arnhem Land region","STATE":"NT","COMMENTS":" ","NO_MAP":"15","LABELS":"15 Li-Anthawirriyarra Sea Rangers","URL":"https://www.niaa.gov.au/indigenous-affairs/environment/yanyuwa-ipa-and-li-anthawirriuarra-sea-rangers","LATITUDE":-16.0697,"LONGITUDE":136.3086},"id":76},{"type":"Point","coordinates":[126.577936000346,-26.1314860003786],"properties":{"OBJECTID":129,"NAME":"Warburton Women Rangers","ADMIN_ORG":"Desert Support Services","REGION":"WA - Central and Southern region","STATE":"WA","COMMENTS":" ","NO_MAP":"16","LABELS":"16 Warburton Women Rangers","URL":"https://www.niaa.gov.au/indigenous-affairs/environment/western-desert-martu-ranger-programme","LATITUDE":-26.131486,"LONGITUDE":126.577936},"id":77},{"type":"Point","coordinates":[126.605905815301,-25.9720580596317],"properties":{"OBJECTID":130,"NAME":"Warburton Men Rangers","ADMIN_ORG":"Desert Support Services","REGION":"WA - Central and Southern region","STATE":"WA","COMMENTS":" ","NO_MAP":"17","LABELS":"17 Warburton Men Rangers","URL":"https://www.niaa.gov.au/indigenous-affairs/environment/western-desert-martu-ranger-programme","LATITUDE":-25.97205806,"LONGITUDE":126.60590582},"id":78},{"type":"Point","coordinates":[145.896378000145,-16.9241359999764],"properties":{"OBJECTID":86,"NAME":"Gunggandji Rangers","ADMIN_ORG":"Gunggandji Prescribed Body Corporate Aboriginal Corporation","REGION":"Qld - Mainland northern region","STATE":"QLD","COMMENTS":" ","NO_MAP":"29","LABELS":"29 Gunggandji Rangers","URL":"https://www.niaa.gov.au/indigenous-affairs/environment/gunggandji-land-and-sea-rangers","LATITUDE":-16.924136,"LONGITUDE":145.896378},"id":79},{"type":"Point","coordinates":[121.466320099893,-30.7463900102907],"properties":{"OBJECTID":87,"NAME":"Goldfields Land Management Rangers","ADMIN_ORG":"Goldfields Land and Sea Council","REGION":"WA - Central and Southern region","STATE":"WA","COMMENTS":"Added January 2017","NO_MAP":"22","LABELS":"22 Goldfields Land Management Rangers","URL":"https://www.niaa.gov.au/indigenous-affairs/environment/goldfields-land-management-rangers","LATITUDE":-30.74639001,"LONGITUDE":121.4663201},"id":80},{"type":"Point","coordinates":[131.83440000016,-13.8227000002048],"properties":{"OBJECTID":88,"NAME":"Wagiman Rangers","ADMIN_ORG":"Northern Land Council","REGION":"NT - Top End region","STATE":"NT","COMMENTS":" ","NO_MAP":"11","LABELS":"11 Wagiman Rangers","URL":"https://www.niaa.gov.au/indigenous-affairs/environment/wagiman-guwardagun-rangers","LATITUDE":-13.8227,"LONGITUDE":131.8344},"id":81},{"type":"Point","coordinates":[132.813744900007,-12.6618018596681],"properties":{"OBJECTID":89,"NAME":"Warnbi Rangers","ADMIN_ORG":"Warnbi Aboriginal Corporation","REGION":"NT - Top End region","STATE":"NT","COMMENTS":" ","NO_MAP":"18","LABELS":"18 Warnbi Rangers","URL":"https://www.niaa.gov.au/indigenous-affairs/environment/warnbi-rangers","LATITUDE":-12.66180186,"LONGITUDE":132.8137449},"id":82},{"type":"Point","coordinates":[132.26439999966,-13.1389619996965],"properties":{"OBJECTID":90,"NAME":"Werenbun Rangers","ADMIN_ORG":"Werenbun Aboriginal Corporation","REGION":"NT - Top End region","STATE":"NT","COMMENTS":" ","NO_MAP":"19","LABELS":"19 Werenbun Rangers","URL":"https://www.niaa.gov.au/indigenous-affairs/environment/werenbun-rangers","LATITUDE":-13.138962,"LONGITUDE":132.2644},"id":83},{"type":"Point","coordinates":[134.91667000012,-11.9000000003996],"properties":{"OBJECTID":91,"NAME":"Crocodile Islands Rangers","ADMIN_ORG":"Milingimbi and Outstations Progress Resource Aboriginal Corporation","REGION":"NT - Arnhem Land region","STATE":"NT","COMMENTS":" ","NO_MAP":"20","LABELS":"20 Crocodile Islands Rangers","URL":"https://www.niaa.gov.au/indigenous-affairs/environment/crocodile-islands-rangers","LATITUDE":-11.9,"LONGITUDE":134.91667},"id":84},{"type":"Point","coordinates":[136.226099999815,-13.2004000000599],"properties":{"OBJECTID":92,"NAME":"Yirralka Rangers","ADMIN_ORG":"Laynhapuy Homelands Aboriginal Corporation","REGION":"NT - Arnhem Land region","STATE":"NT","COMMENTS":"Moved to Laynhapuy IPA - August 2020","NO_MAP":"21","LABELS":"21 Yirralka Rangers","URL":"https://www.niaa.gov.au/laynhapuy-ipa-and-yirralka-rangers","LATITUDE":-13.2004,"LONGITUDE":136.2261},"id":85},{"type":"Point","coordinates":[133.83332999988,-12.7499999996003],"properties":{"OBJECTID":93,"NAME":"Warddeken Rangers","ADMIN_ORG":"Warddeken Land Management Limited","REGION":"NT - Arnhem Land region","STATE":"NT","COMMENTS":"Previously Manwurrk","NO_MAP":"24","LABELS":"24 Warddeken Rangers","URL":"https://www.niaa.gov.au/indigenous-affairs/environment/warddeken-ipa-and-rangers","LATITUDE":-12.75,"LONGITUDE":133.83333},"id":86},{"type":"Point","coordinates":[132.57860000009,-11.150700000005],"properties":{"OBJECTID":94,"NAME":"Garngi Land and Sea Management Rangers","ADMIN_ORG":"Northern Land Council","REGION":"NT - Arnhem Land region","STATE":"NT","COMMENTS":" ","NO_MAP":"25","LABELS":"25 Garngi Land and Sea Management Rangers","URL":"https://www.niaa.gov.au/indigenous-affairs/environment/indigenous-rangers-working-country/garngi-rangers","LATITUDE":-11.1507,"LONGITUDE":132.5786},"id":87},{"type":"Point","coordinates":[135.56639999986,-12.0235000002248],"properties":{"OBJECTID":95,"NAME":"Gumurr Marthakal Rangers","ADMIN_ORG":"Marthakal Homelands and Resource Centre Aboriginal Corporation and Northern Land Council","REGION":"NT - Arnhem Land region","STATE":"NT","COMMENTS":" ","NO_MAP":"26","LABELS":"26 Gumurr Marthakal Rangers","URL":"https://www.niaa.gov.au/indigenous-affairs/environment/marthakal-ipa-and-gumurr-marthakal-rangers","LATITUDE":-12.0235,"LONGITUDE":135.5664},"id":88},{"type":"Point","coordinates":[135.035699999755,-12.57499999995],"properties":{"OBJECTID":96,"NAME":"Arafura Swamp Ranger Groups","ADMIN_ORG":"Arafura Swamp Rangers Aboriginal Corporation","REGION":"NT - Arnhem Land region","STATE":"NT","COMMENTS":"Note: Three groups","NO_MAP":"28","LABELS":"28 Arafura Swamp Ranger Groups","URL":"https://www.niaa.gov.au/indigenous-affairs/environment/arafura-swamp-rangers","LATITUDE":-12.575,"LONGITUDE":135.0357},"id":89},{"type":"Point","coordinates":[133.386125000169,-11.650013890029],"properties":{"OBJECTID":97,"NAME":"Mardbalk Land and Sea Management Rangers","ADMIN_ORG":"Northern Land Council","REGION":"NT - Arnhem Land region","STATE":"NT","COMMENTS":" ","NO_MAP":"29","LABELS":"29 Mardbalk Land and Sea Management Rangers","URL":"https://www.niaa.gov.au/indigenous-affairs/environment/indigenous-rangers-working-country/mardbalk-marine-rangers","LATITUDE":-11.65001389,"LONGITUDE":133.386125},"id":90},{"type":"Point","coordinates":[134.333347200213,-13.6652916696748],"properties":{"OBJECTID":98,"NAME":"Mimal Rangers","ADMIN_ORG":"Mimal Land Management Aboriginal Corporation","REGION":"NT - Arnhem Land region","STATE":"NT","COMMENTS":" ","NO_MAP":"30","LABELS":"30 Mimal Rangers","URL":"https://www.niaa.gov.au/indigenous-affairs/environment/mimal-rangers","LATITUDE":-13.66529167,"LONGITUDE":134.3333472},"id":91},{"type":"Point","coordinates":[135.74060000039,-14.2791000003647],"properties":{"OBJECTID":1,"NAME":"Numbulwar Numburindi Land and Sea Management Rangers","ADMIN_ORG":"Northern Land Council","REGION":"NT - Arnhem Land region","STATE":"NT","COMMENTS":" ","NO_MAP":"31","LABELS":"31 Numbulwar Numburindi Land and Sea Management Rangers","URL":"https://www.niaa.gov.au/indigenous-affairs/environment/numbulwar-numburindi-amalahgayag-injung-rangers","LATITUDE":-14.2791,"LONGITUDE":135.7406},"id":92},{"type":"Point","coordinates":[132.971820999639,-12.3887969998816],"properties":{"OBJECTID":2,"NAME":"Njanjma Rangers","ADMIN_ORG":"Njanjma Aboriginal Corporation","REGION":"NT - Arnhem Land region","STATE":"NT","COMMENTS":" ","NO_MAP":"33","LABELS":"33 Njanjma Rangers","URL":"https://www.niaa.gov.au/indigenous-affairs/environment/njanjma-rangers","LATITUDE":-12.388797,"LONGITUDE":132.971821},"id":93},{"type":"Point","coordinates":[136.419100000365,-13.8505999998901],"properties":{"OBJECTID":3,"NAME":"Anindilyakwa Rangers","ADMIN_ORG":"Anindilyakwa Land Council","REGION":"NT - Arnhem Land region","STATE":"NT","COMMENTS":" ","NO_MAP":"17","LABELS":"17 Anindilyakwa Rangers","URL":"https://www.niaa.gov.au/indigenous-affairs/environment/anindilyakwa-ipa-and-rangers","LATITUDE":-13.8506,"LONGITUDE":136.4191},"id":94},{"type":"Point","coordinates":[136.776299999845,-12.1870000001499],"properties":{"OBJECTID":4,"NAME":"Dhimurru Rangers","ADMIN_ORG":"Dhimurru Aboriginal Corporation","REGION":"NT - Arnhem Land region","STATE":"NT","COMMENTS":" ","NO_MAP":"22","LABELS":"22 Dhimurru Rangers","URL":"https://www.niaa.gov.au/dhimurru-ipa-and-rangers","LATITUDE":-12.187,"LONGITUDE":136.7763},"id":95},{"type":"Point","coordinates":[134.223625000294,-12.0508472199232],"properties":{"OBJECTID":5,"NAME":"Bawinanga Rangers","ADMIN_ORG":"Bawinanga Aboriginal Corporation","REGION":"NT - Arnhem Land region","STATE":"NT","COMMENTS":" ","NO_MAP":"23","LABELS":"23 Bawinanga Rangers","URL":"https://www.niaa.gov.au/indigenous-affairs/environment/djelk-ipa-and-bawinanga-rangers","LATITUDE":-12.05084722,"LONGITUDE":134.223625},"id":96},{"type":"Point","coordinates":[132.266768000043,-14.4667600001739],"properties":{"OBJECTID":6,"NAME":"Jawoyn Rangers","ADMIN_ORG":"Jawoyn Association Aboriginal Corporation","REGION":"NT - Top End region","STATE":"NT","COMMENTS":" ","NO_MAP":"32","LABELS":"32 Jawoyn Rangers","URL":"https://www.niaa.gov.au/jawoyn-rangers","LATITUDE":-14.46676,"LONGITUDE":132.266768},"id":97},{"type":"Point","coordinates":[147.718360000314,-40.3122169998147],"properties":{"OBJECTID":128,"NAME":"milythina pakana Rangers (3 groups incl. 1a & 1b)","ADMIN_ORG":"Aboriginal Land Council of Tasmania","REGION":"TAS","STATE":"TAS","COMMENTS":"Note: Three groups, Previously Tasmanian Aboriginal Centre Rangers - milaythina pakana","NO_MAP":"1","LABELS":"1 milythina pakana Rangers (3 groups incl. 1a & 1b)","URL":"https://www.niaa.gov.au/tasmanian-aboriginal-trainee-rangers","LATITUDE":-42.810464,"LONGITUDE":147.327684},"id":98},{"type":"Point","coordinates":[147.99099999975,-40.4019999997002],"properties":{"OBJECTID":7,"NAME":"truwana Rangers","ADMIN_ORG":"Aboriginal Land Council of Tasmania","REGION":"TAS","STATE":"TAS","COMMENTS":"Added 2016","NO_MAP":"3","LABELS":"3 truwana Rangers","URL":"https://www.niaa.gov.au/indigenous-affairs/environment/truwana-rangers","LATITUDE":-40.402,"LONGITUDE":147.991},"id":99},{"type":"Point","coordinates":[142.774990000288,-9.90139000014836],"properties":{"OBJECTID":100,"NAME":"lamalgal Rangers","ADMIN_ORG":"Torres Strait Regional Authority","REGION":"Qld - Torres Strait region","STATE":"QLD","COMMENTS":" ","NO_MAP":"11","LABELS":"11 lamalgal Rangers","URL":"https://www.niaa.gov.au/indigenous-affairs/environment/indigenous-rangers-working-country/torres-strait-islands-rangers","LATITUDE":-9.90139,"LONGITUDE":142.77499},"id":100},{"type":"Point","coordinates":[143.763339999741,-9.59693999968118],"properties":{"OBJECTID":101,"NAME":"Erubam Rangers","ADMIN_ORG":"Torres Strait Regional Authority","REGION":"Qld - Torres Strait region","STATE":"QLD","COMMENTS":" ","NO_MAP":"12","LABELS":"12 Erubam Rangers","URL":"https://www.niaa.gov.au/indigenous-affairs/environment/indigenous-rangers-working-country/torres-strait-islands-rangers","LATITUDE":-9.59694,"LONGITUDE":143.76334},"id":101},{"type":"Point","coordinates":[142.213610000002,-9.26028000042162],"properties":{"OBJECTID":102,"NAME":"Malu Kiai Rangers","ADMIN_ORG":"Torres Strait Regional Authority","REGION":"Qld - Torres Strait region","STATE":"QLD","COMMENTS":" ","NO_MAP":"13","LABELS":"13 Malu Kiai Rangers","URL":"https://www.niaa.gov.au/indigenous-affairs/environment/indigenous-rangers-working-country/torres-strait-islands-rangers","LATITUDE":-9.26028,"LONGITUDE":142.21361},"id":102},{"type":"Point","coordinates":[142.144709999967,-10.1155600002937],"properties":{"OBJECTID":103,"NAME":"Mura Badhugal Rangers","ADMIN_ORG":"Torres Strait Regional Authority","REGION":"Qld - Torres Strait region","STATE":"QLD","COMMENTS":"Previously Mura Badhugau Rangers (an prior to that Badagal)","NO_MAP":"14","LABELS":"14 Mura Badhugal Rangers","URL":"https://www.niaa.gov.au/indigenous-affairs/environment/indigenous-rangers-working-country/torres-strait-islands-rangers","LATITUDE":-10.11556,"LONGITUDE":142.14471},"id":103},{"type":"Point","coordinates":[142.192229999715,-9.9535099997866],"properties":{"OBJECTID":104,"NAME":"Mabuygiw Rangers","ADMIN_ORG":"Torres Strait Regional Authority","REGION":"Qld - Torres Strait region","STATE":"QLD","COMMENTS":" ","NO_MAP":"15","LABELS":"15 Mabuygiw Rangers","URL":"https://www.niaa.gov.au/indigenous-affairs/environment/indigenous-rangers-working-country/torres-strait-islands-rangers","LATITUDE":-9.95351,"LONGITUDE":142.19223},"id":104},{"type":"Point","coordinates":[142.827769999786,-10.2066290001282],"properties":{"OBJECTID":8,"NAME":"Warraberalgal Rangers","ADMIN_ORG":"Torres Strait Regional Authority","REGION":"Qld - Torres Strait region","STATE":"QLD","COMMENTS":"Previously Warraber Rangers","NO_MAP":"16","LABELS":"16 Warraberalgal Rangers","URL":"https://www.niaa.gov.au/indigenous-affairs/environment/warraberalgal-and-porumalgal-ipa","LATITUDE":-10.206629,"LONGITUDE":142.82777},"id":105},{"type":"Point","coordinates":[142.67398199987,-9.3896140003858],"properties":{"OBJECTID":105,"NAME":"Mura Buway Rangers","ADMIN_ORG":"Torres Strait Regional Authority","REGION":"Qld - Torres Strait region","STATE":"QLD","COMMENTS":"Previously Wugagal Rangers - Saibai","NO_MAP":"17","LABELS":"17 Mura Buway Rangers","URL":"https://www.niaa.gov.au/indigenous-affairs/environment/indigenous-rangers-working-country/torres-strait-islands-rangers","LATITUDE":-9.389614,"LONGITUDE":142.673982},"id":106},{"type":"Point","coordinates":[143.434420000383,-9.74462000031269],"properties":{"OBJECTID":106,"NAME":"Masigalgal Rangers","ADMIN_ORG":"Torres Strait Regional Authority","REGION":"Qld - Torres Strait region","STATE":"QLD","COMMENTS":"Previously Masig","NO_MAP":"18","LABELS":"18 Masigalgal Rangers","URL":"https://www.niaa.gov.au/indigenous-affairs/environment/indigenous-rangers-working-country/torres-strait-islands-rangers","LATITUDE":-9.74462,"LONGITUDE":143.43442},"id":107},{"type":"Point","coordinates":[143.064160000284,-10.0501799998071],"properties":{"OBJECTID":107,"NAME":"Porumalgal Rangers","ADMIN_ORG":"Torres Strait Regional Authority","REGION":"Qld - Torres Strait region","STATE":"QLD","COMMENTS":"Previously Poruma, then Porumalgal Rangers","NO_MAP":"19","LABELS":"19 Porumalgal Rangers","URL":"https://www.niaa.gov.au/indigenous-affairs/environment/warraberalgal-and-porumalgal-ipa","LATITUDE":-10.05018,"LONGITUDE":143.06416},"id":108},{"type":"Point","coordinates":[142.21900000035,-10.2332305901196],"properties":{"OBJECTID":108,"NAME":"Mua Lagalgau Rangers - Kubin","ADMIN_ORG":"Torres Strait Regional Authority","REGION":"Qld - Torres Strait region","STATE":"QLD","COMMENTS":"Previously Mualagal","NO_MAP":"20","LABELS":"20 Mua Lagalgau Rangers - Kubin","URL":"https://www.niaa.gov.au/indigenous-affairs/environment/indigenous-rangers-working-country/torres-strait-islands-rangers","LATITUDE":-10.23323059,"LONGITUDE":142.219},"id":109},{"type":"Point","coordinates":[142.26699999975,-10.1735370002323],"properties":{"OBJECTID":109,"NAME":"Mua Lagalgau Rangers - St Pauls","ADMIN_ORG":"Torres Strait Regional Authority","REGION":"Qld - Torres Strait region","STATE":"QLD","COMMENTS":"Added 2016","NO_MAP":"21","LABELS":"21 Mua Lagalgau Rangers - St Pauls","URL":"https://www.niaa.gov.au/indigenous-affairs/environment/indigenous-rangers-working-country/torres-strait-islands-rangers","LATITUDE":-10.173537,"LONGITUDE":142.267},"id":110},{"type":"Point","coordinates":[143.547499999925,-9.50740000020977],"properties":{"OBJECTID":110,"NAME":"Ugaram Rangers","ADMIN_ORG":"Torres Strait Regional Authority","REGION":"Qld - Torres Strait region","STATE":"QLD","COMMENTS":"Previously Ugar","NO_MAP":"22","LABELS":"22 Ugaram Rangers","URL":"https://www.niaa.gov.au/indigenous-affairs/environment/indigenous-rangers-working-country/torres-strait-islands-rangers","LATITUDE":-9.5074,"LONGITUDE":143.5475},"id":111},{"type":"Point","coordinates":[144.051640000086,-9.91518000025679],"properties":{"OBJECTID":111,"NAME":"Meriam Gesep Rangers","ADMIN_ORG":"Torres Strait Regional Authority","REGION":"Qld - Torres Strait region","STATE":"QLD","COMMENTS":"Previously Meriam Gesep A Gur Keparem Le Rangers","NO_MAP":"23","LABELS":"23 Meriam Gesep Rangers","URL":"https://www.niaa.gov.au/indigenous-affairs/environment/indigenous-rangers-working-country/torres-strait-islands-rangers","LATITUDE":-9.91518,"LONGITUDE":144.05164},"id":112},{"type":"Point","coordinates":[142.533022999812,-9.42320499991077],"properties":{"OBJECTID":112,"NAME":"Simakal Rangers","ADMIN_ORG":"Torres Strait Regional Authority","REGION":"Qld - Torres Strait region","STATE":"QLD","COMMENTS":"Previously Dauan","NO_MAP":"24","LABELS":"24 Simakal Rangers","URL":"https://www.niaa.gov.au/indigenous-affairs/environment/indigenous-rangers-working-country/torres-strait-islands-rangers","LATITUDE":-9.423205,"LONGITUDE":142.533023},"id":113},{"type":"Point","coordinates":[142.386183199795,-10.8931313097621],"properties":{"OBJECTID":9,"NAME":"Apudthama Land and Sea Rangers","ADMIN_ORG":"Northern Peninsula Area Regional Council","REGION":"Qld - Mainland northern region","STATE":"QLD","COMMENTS":"Note: Two groups","NO_MAP":"26","LABELS":"26 Apudthama Land and Sea Rangers","URL":"https://www.niaa.gov.au/indigenous-affairs/environment/apudthama-northern-peninsula-area-rangers","LATITUDE":-10.89313131,"LONGITUDE":142.3861832},"id":114},{"type":"Point","coordinates":[141.625416700321,-38.1343055596538],"properties":{"OBJECTID":10,"NAME":"Budj Bim Rangers","ADMIN_ORG":"Gunditj Mirring Traditional Owners Aboriginal Corporation and Winda Mara Aboriginal Corporation","REGION":"VIC","STATE":"VIC","COMMENTS":" ","NO_MAP":"1","LABELS":"1 Budj Bim Rangers","URL":"https://www.niaa.gov.au/indigenous-affairs/environment/kurtonitj-ipa-and-budj-bim-rangers","LATITUDE":-38.13430556,"LONGITUDE":141.6254167},"id":115},{"type":"Point","coordinates":[137.464350950136,-29.5790996388372],"properties":{"OBJECTID":11,"NAME":"Arabana Rangers","ADMIN_ORG":"Arabana Aboriginal Corporation RNTBC","REGION":"SA","STATE":"SA","COMMENTS":"Added 2019","NO_MAP":"9","LABELS":"9 Arabana Rangers","URL":"https://www.niaa.gov.au/indigenous-affairs/environment/indigenous-rangers-working-country/arabana-rangers","LATITUDE":-29.57909964,"LONGITUDE":137.46435095},"id":116},{"type":"Point","coordinates":[150.689848017672,-35.1664003406032],"properties":{"OBJECTID":12,"NAME":"Bhewerre Rangers - Jervis Bay Territory","ADMIN_ORG":"Wreck Bay Aboriginal Community Council","REGION":"ACT","STATE":"ACT","COMMENTS":"Added 14 August 2020","NO_MAP":"1","LABELS":"1 Bhewerre Rangers - Jervis Bay Territory","URL":"https://www.niaa.gov.au/indigenous-affairs/environment/wreck-bay-caring-country-rangers","LATITUDE":-35.16640034,"LONGITUDE":150.68984802},"id":117},{"type":"Point","coordinates":[121.895161727632,-33.8430849685964],"properties":{"OBJECTID":13,"NAME":"Tjaltjraak Rangers","ADMIN_ORG":"Esperance Tjaltjraak Native Title Aboriginal Corporation","REGION":"WA - Central and Southern region","STATE":"WA","COMMENTS":"Added 14 August 2020","NO_MAP":"28","LABELS":"28 Tjaltjraak Rangers","URL":"https://www.niaa.gov.au/indigenous-affairs/environment/esperance-tjaltjraak-cultural-rangers","LATITUDE":-33.84308497,"LONGITUDE":121.89516173},"id":118},{"type":"Point","coordinates":[122.214721205419,-17.9606577954209],"properties":{"OBJECTID":14,"NAME":"Yawuru Rangers","ADMIN_ORG":"Nyamba Buru Yawuru Ltd","REGION":"WA - Kimberley region","STATE":"WA","COMMENTS":"Added 14 August 2020","NO_MAP":"27","LABELS":"27 Yawuru Rangers","URL":"https://www.niaa.gov.au/indigenous-affairs/environment/yawuru-ipa-and-rangers","LATITUDE":-17.96065779,"LONGITUDE":122.21472121},"id":119},{"type":"Point","coordinates":[142.41622599973,-32.3930586159624],"properties":{"OBJECTID":31,"NAME":"Barkandji River Rangers","ADMIN_ORG":"Barkandji Native Title Group Aboriginal Corporation","REGION":"NSW","STATE":"NSW","COMMENTS":"Added 14 August 2020","NO_MAP":"8","LABELS":"8 Barkandji River Rangers","URL":"https://www.niaa.gov.au/indigenous-affairs/environment/barkandji-rangers","LATITUDE":-32.39305862,"LONGITUDE":142.416226},"id":120},{"type":"Point","coordinates":[139.178491122168,-16.6620536573504],"properties":{"OBJECTID":32,"NAME":"Wellesley Islands Rangers","ADMIN_ORG":"Wellesley Islands Land and Sea Social Economic Development PTY LTD","REGION":"Qld - Mainland northern region","STATE":"QLD","COMMENTS":"Added 22 March 2021","NO_MAP":"33","LABELS":"33 Wellesley Islands Rangers","URL":"https://www.niaa.gov.au/indigenous-affairs/environment/thuwathu-bujimulla-ipa-and-wellesley-islands-rangers","LATITUDE":-16.66205366,"LONGITUDE":139.17849112},"id":121},{"type":"Point","coordinates":[139.273555597613,-35.1198462882755],"properties":{"OBJECTID":117,"NAME":"Coorong and Murray Lower Lakes Area Rangers","ADMIN_ORG":"Aboriginal Lands Trust of South Australia","REGION":"SA","STATE":"SA","COMMENTS":"Note: Two groups, Added 22 March 2021","NO_MAP":"10","LABELS":"10 Coorong and Murray Lower Lakes Area Rangers","URL":"https://www.niaa.gov.au/indigenous-affairs/environment/raukkan-rangers","LATITUDE":-35.11984629,"LONGITUDE":139.2735556},"id":122},{"type":"Point","coordinates":[140.746487674666,-34.1720740197002],"properties":{"OBJECTID":33,"NAME":"River Murray and Mallee Aboriginal Corporation Ranger Team","ADMIN_ORG":"Murraylands and Riverland Landscape Board","REGION":"SA","STATE":"SA","COMMENTS":" ","NO_MAP":"11","LABELS":"11 River Murray and Mallee Aboriginal Corporation Ranger Team","URL":"https://www.niaa.gov.au/indigenous-affairs/environment/riverland-rangers","LATITUDE":-34.17207402,"LONGITUDE":140.74648768},"id":123},{"type":"Point","coordinates":[150.362498612321,-28.6008118147134],"properties":{"OBJECTID":118,"NAME":"Northern Gomeroi River Rangers","ADMIN_ORG":"National Indigenous Australians Agency","REGION":"NSW","STATE":"NSW","COMMENTS":"Murray Darling Ranger Program (separate program from IRP)","NO_MAP":"5","LABELS":"5 Northern Gomeroi River Rangers","URL":"https://www.niaa.gov.au/sites/default/files/murray-darling-basin-indigenous-river-rangers-program.docx","LATITUDE":-28.60081181,"LONGITUDE":150.36249861},"id":124},{"type":"Point","coordinates":[148.141000058806,-30.0190000696974],"properties":{"OBJECTID":119,"NAME":"Ngarrangarra-li Walaaybaa Walgett River Rangers","ADMIN_ORG":"National Indigenous Australians Agency","REGION":"NSW","STATE":"NSW","COMMENTS":"Murray Darling Ranger Program (separate program from IRP)","NO_MAP":"4","LABELS":"4 Ngarrangarra-li Walaaybaa Walgett River Rangers","URL":"https://www.niaa.gov.au/sites/default/files/murray-darling-basin-indigenous-river-rangers-program.docx","LATITUDE":-30.01900007,"LONGITUDE":148.14100006},"id":125},{"type":"Point","coordinates":[147.771141423438,-29.729873247952],"properties":{"OBJECTID":119,"NAME":"Ngarrangarra-li Walaaybaa Walgett River Rangers","ADMIN_ORG":"National Indigenous Australians Agency","REGION":"NSW","STATE":"NSW","COMMENTS":"Murray Darling Ranger Program (separate program from IRP)","NO_MAP":"4","LABELS":"4 Ngarrangarra-li Walaaybaa Walgett River Rangers","URL":"https://www.niaa.gov.au/sites/default/files/murray-darling-basin-indigenous-river-rangers-program.docx","LATITUDE":-30.01900007,"LONGITUDE":148.14100006},"id":126},{"type":"Point","coordinates":[141.748999918012,-34.1029999181117],"properties":{"OBJECTID":121,"NAME":"Lindsay Mulcra and Wallpolla Islands River Rangers","ADMIN_ORG":"National Indigenous Australians Agency","REGION":"NSW","STATE":"NSW","COMMENTS":"Murray Darling Ranger Program (separate program from IRP)","NO_MAP":"1","LABELS":"1 Lindsay Mulcra and Wallpolla Islands River Rangers","URL":"https://www.niaa.gov.au/sites/default/files/murray-darling-basin-indigenous-river-rangers-program.docx","LATITUDE":-34.10299992,"LONGITUDE":141.74899992},"id":127},{"type":"Point","coordinates":[143.83996455472,-34.4993161287363],"properties":{"OBJECTID":122,"NAME":"Gayini River Rangers","ADMIN_ORG":"National Indigenous Australians Agency","REGION":"NSW","STATE":"NSW","COMMENTS":"Murray Darling Ranger Program (separate program from IRP)","NO_MAP":"2","LABELS":"2 Gayini River Rangers","URL":"https://www.niaa.gov.au/sites/default/files/murray-darling-basin-indigenous-river-rangers-program.docx","LATITUDE":-34.49931613,"LONGITUDE":143.83996456},"id":128},{"type":"Point","coordinates":[144.242762307934,-35.2843457146829],"properties":{"OBJECTID":123,"NAME":"Yarkuwa Indigenous River Rangers","ADMIN_ORG":"National Indigenous Australians Agency","REGION":"NSW","STATE":"NSW","COMMENTS":"Murray Darling Ranger Program (separate program from IRP)","NO_MAP":"3","LABELS":"3 Yarkuwa Indigenous River Rangers","URL":"https://www.niaa.gov.au/sites/default/files/murray-darling-basin-indigenous-river-rangers-program.docx","LATITUDE":-35.28434571,"LONGITUDE":144.24276231},"id":129},{"type":"Point","coordinates":[141.067007960817,-17.6666864555347],"properties":{"OBJECTID":113,"NAME":"Kurtijar, Gkuthaarn, and Kukatj (Normanton) Rangers","ADMIN_ORG":"Carpentaria Land Council Aboriginal Corporation","REGION":"Qld - Mainland northern region","STATE":"QLD","COMMENTS":"Added 2016","NO_MAP":"5","LABELS":"5 Kurtijar, Gkuthaarn, and Kukatj (Normanton) Rangers","URL":"https://www.niaa.gov.au/indigenous-affairs/environment/normanton-rangers","LATITUDE":-17.6667,"LONGITUDE":141.067},"id":130}]}}}